City_ID,City,Country,Date,Lat,Lng,Max Temp,Humidity,Cloudiness,Wind Speed
0,Barrow,US,2020-12-22 17:12:47,71.29,-156.79,-18.4,68,1,19.46
1,Linfen,CN,2020-12-22 17:12:47,36.09,111.52,35.56,70,99,3.62
2,High Level,CA,2020-12-22 17:11:16,58.52,-117.14,-11.2,76,90,2.24
3,Punta Arenas,CL,2020-12-22 17:12:48,-53.15,-70.92,53.6,50,75,23.04
4,Bredasdorp,ZA,2020-12-22 17:12:48,-34.53,20.04,71.6,73,94,11.41
5,Coquimbo,CL,2020-12-22 17:12:48,-29.95,-71.34,59.0,77,90,8.05
6,Luderitz,NA,2020-12-22 17:12:48,-26.65,15.16,73.4,69,5,16.11
7,Kodiak,US,2020-12-22 17:12:49,57.79,-152.41,42.8,81,75,13.29
8,Gonaives,HT,2020-12-22 17:12:49,19.45,-72.68,84.88,55,0,3.85
9,Oranjemund,NA,2020-12-22 17:12:49,-28.55,16.43,66.38,83,32,10.49
10,Yellowknife,CA,2020-12-22 17:12:49,62.46,-114.35,-18.4,75,90,3.36
11,Rikitea,PF,2020-12-22 17:12:49,-23.12,-134.97,75.94,74,64,11.68
12,Qaanaaq,GL,2020-12-22 17:12:50,77.48,-69.36,1.2,75,41,4.52
13,Yulara,AU,2020-12-22 17:12:50,-25.24,130.99,69.8,37,82,9.17
14,Albany,US,2020-12-22 17:12:50,42.6,-73.97,39.99,62,87,11.18
15,Halifax,CA,2020-12-22 17:09:03,44.65,-63.57,39.0,93,99,13.87
16,Atuona,PF,2020-12-22 17:12:51,-9.8,-139.03,78.3,78,30,14.18
17,Mar Del Plata,AR,2020-12-22 17:12:51,-38.0,-57.56,87.8,33,20,9.17
18,Grindavik,IS,2020-12-22 17:12:51,63.84,-22.43,28.4,74,0,3.36
19,Castro,BR,2020-12-22 17:10:01,-24.79,-50.01,72.86,85,70,4.32
20,Raga,SS,2020-12-22 17:12:51,8.46,25.68,82.62,24,93,4.23
21,Mataura,NZ,2020-12-22 17:12:52,-46.19,168.86,55.99,96,100,1.01
22,Ushuaia,AR,2020-12-22 17:10:27,-54.8,-68.3,50.0,61,75,23.04
23,Makakilo City,US,2020-12-22 17:11:09,21.35,-158.09,69.8,88,1,3.36
24,Nikolskoye,RU,2020-12-22 17:12:52,59.7,30.79,33.8,98,90,6.71
25,Chirongui,YT,2020-12-22 17:12:52,-12.93,45.15,82.4,74,40,3.36
26,Airai,TL,2020-12-22 17:12:53,-8.93,125.41,61.39,100,100,3.13
27,Port Alfred,ZA,2020-12-22 17:12:53,-33.59,26.89,72.0,91,61,4.0
28,Torbay,CA,2020-12-22 17:10:07,47.67,-52.73,48.99,100,90,32.21
29,Killarney,IE,2020-12-22 17:12:53,52.05,-9.52,36.64,93,100,9.37
30,Geraldton,AU,2020-12-22 17:12:53,-28.77,114.6,82.4,24,0,11.41
31,Kapaa,US,2020-12-22 17:12:54,22.08,-159.32,68.0,94,1,8.05
32,Deep River,CA,2020-12-22 17:12:54,46.1,-77.5,28.4,79,90,14.99
33,Cape Town,ZA,2020-12-22 17:11:55,-33.93,18.42,73.0,83,75,20.8
34,Cam Ranh,VN,2020-12-22 17:12:54,11.92,109.16,75.2,94,75,13.87
35,San Benito,US,2020-12-22 17:12:54,36.62,-121.08,48.0,93,75,6.93
36,Bluff,NZ,2020-12-22 17:12:55,-46.6,168.33,55.99,96,100,1.01
37,Longyearbyen,SJ,2020-12-22 17:12:55,78.22,15.64,24.8,73,40,49.44
38,Pevek,RU,2020-12-22 17:12:55,69.7,170.31,-9.98,88,98,10.49
39,Hobart,AU,2020-12-22 17:12:55,-42.88,147.33,59.0,93,90,8.05
40,Rosarito,MX,2020-12-22 17:12:55,32.33,-117.03,53.6,87,40,5.82
41,Rio Gallegos,AR,2020-12-22 17:11:23,-51.62,-69.22,64.4,31,40,26.4
42,Avarua,CK,2020-12-22 17:12:56,-21.21,-159.78,73.4,88,79,1.12
43,Dikson,RU,2020-12-22 17:12:56,73.51,80.55,-22.61,88,75,9.86
44,Oxford,GB,2020-12-22 17:09:10,51.75,-1.26,46.4,87,90,5.82
45,Boa Vista,BR,2020-12-22 17:12:56,2.82,-60.67,91.4,46,75,9.17
46,Zyryanka,RU,2020-12-22 17:12:57,65.75,150.85,-27.76,85,100,5.88
47,Port Lincoln,AU,2020-12-22 17:12:57,-34.73,135.87,56.08,73,16,9.69
48,Mae Sai,TH,2020-12-22 17:12:57,20.43,99.88,54.0,100,0,3.36
49,Ancud,CL,2020-12-22 17:12:57,-41.87,-73.82,63.0,77,75,13.87
50,Cedar Lake,US,2020-12-22 17:12:57,41.36,-87.44,39.0,78,5,5.01
51,Opuwo,NA,2020-12-22 17:12:58,-18.06,13.84,83.17,26,65,14.52
52,Upernavik,GL,2020-12-22 17:12:58,72.79,-56.15,22.78,85,100,5.99
53,Bengkulu,ID,2020-12-22 17:12:58,-3.8,102.27,76.68,81,72,4.72
54,Arraial Do Cabo,BR,2020-12-22 17:12:58,-22.97,-42.03,84.2,78,75,11.41
55,New Norfolk,AU,2020-12-22 17:12:59,-42.78,147.06,59.0,77,82,1.01
56,Port Moresby,PG,2020-12-22 17:11:51,-9.44,147.18,75.2,100,40,9.17
57,Vaini,TO,2020-12-22 17:12:59,-21.2,-175.2,75.2,100,20,4.61
58,Hilo,US,2020-12-22 17:12:59,19.73,-155.09,69.8,77,90,6.93
59,Grand Gaube,MU,2020-12-22 17:12:59,-20.01,57.66,78.01,81,16,10.0
60,Vardo,NO,2020-12-22 17:13:00,70.37,31.11,32.0,88,40,18.34
61,Port Hardy,CA,2020-12-22 17:10:40,50.7,-127.42,41.0,93,40,4.7
62,Buala,SB,2020-12-22 17:13:00,-8.14,159.59,79.99,80,84,1.79
63,Kruisfontein,ZA,2020-12-22 17:13:00,-34.0,24.73,75.99,79,60,5.99
64,Khromtau,KZ,2020-12-22 17:13:00,50.25,58.43,1.24,85,0,8.79
65,Cabo San Lucas,MX,2020-12-22 17:10:26,22.89,-109.91,71.01,72,40,3.36
66,Beyneu,KZ,2020-12-22 17:13:01,45.32,55.2,16.68,90,0,11.72
67,Georgetown,MY,2020-12-22 17:09:02,5.41,100.34,80.6,83,20,3.36
68,Pantai Remis,MY,2020-12-22 17:13:01,4.46,100.63,77.0,94,20,4.23
69,Ituporanga,BR,2020-12-22 17:13:02,-27.41,-49.6,77.0,71,56,1.01
70,Chuy,UY,2020-12-22 17:13:02,-33.7,-53.46,71.28,47,0,9.33
71,Epe,NG,2020-12-22 17:13:02,6.58,3.98,82.15,77,19,8.99
72,Sorong,ID,2020-12-22 17:13:02,-0.88,131.25,82.29,79,87,11.88
73,Severo-Kurilsk,RU,2020-12-22 17:13:03,50.68,156.12,23.07,89,92,27.42
74,Narsaq,GL,2020-12-22 17:13:03,60.92,-46.05,28.4,79,75,3.36
75,Lakes Entrance,AU,2020-12-22 17:13:03,-37.88,147.98,57.99,93,97,1.99
76,Hobyo,SO,2020-12-22 17:13:04,5.35,48.53,79.48,75,79,23.26
77,Shulan,CN,2020-12-22 17:13:04,44.42,126.95,16.88,95,7,7.11
78,Seoul,KR,2020-12-22 17:09:47,37.57,126.98,28.4,92,1,3.33
79,Shiyan,CN,2020-12-22 17:13:04,32.65,110.78,41.88,66,64,4.09
80,Batagay-Alyta,RU,2020-12-22 17:13:04,67.8,130.41,-35.86,81,66,0.54
81,Iqaluit,CA,2020-12-22 17:12:10,63.75,-68.51,5.0,60,75,16.11
82,Broken Hill,AU,2020-12-22 17:13:05,-31.95,141.43,60.8,55,88,8.05
83,Davila,PH,2020-12-22 17:13:05,18.47,120.58,78.21,84,27,17.94
84,Oga,IT,2020-12-22 17:13:05,46.46,10.35,48.99,100,20,2.24
85,Flinders,AU,2020-12-22 17:13:06,-34.58,150.86,59.0,72,27,7.0
86,Bassano,CA,2020-12-22 17:13:06,50.78,-112.47,24.8,100,100,25.28
87,Jimma,ET,2020-12-22 17:13:06,7.67,36.83,65.91,56,56,1.32
88,Esperance,AU,2020-12-22 17:13:06,-33.87,121.9,55.4,76,0,10.29
89,Mastung,PK,2020-12-22 17:13:06,29.8,66.84,39.07,70,0,2.35
90,Pala,TD,2020-12-22 17:13:07,9.36,14.9,83.8,15,64,3.83
91,Nome,US,2020-12-22 17:13:07,64.5,-165.41,28.4,86,90,28.86
92,Tiksi,RU,2020-12-22 17:13:07,71.69,128.87,-18.38,89,100,4.63
93,Meulaboh,ID,2020-12-22 17:13:07,4.14,96.13,77.86,87,100,3.62
94,Kirakira,SB,2020-12-22 17:13:08,-10.45,161.92,79.52,80,32,3.04
95,Isangel,VU,2020-12-22 17:13:08,-19.55,169.27,76.66,84,5,5.28
96,Mahebourg,MU,2020-12-22 17:13:08,-20.41,57.7,75.2,94,75,11.41
97,Carnarvon,AU,2020-12-22 17:13:09,-24.87,113.63,77.0,88,0,6.93
98,Mitu,CO,2020-12-22 17:13:09,1.2,-70.17,82.18,84,97,5.08
99,Cartagena,CO,2020-12-22 17:13:09,10.4,-75.51,89.6,70,0,4.7
100,Ribera,IT,2020-12-22 17:13:09,37.5,13.26,53.01,95,19,5.99
101,Gobabis,NA,2020-12-22 17:11:02,-22.45,18.97,84.2,30,100,8.05
102,Busselton,AU,2020-12-22 17:13:10,-33.65,115.33,63.0,72,0,5.01
103,Nanortalik,GL,2020-12-22 17:13:10,60.14,-45.24,33.26,94,100,5.26
104,Sakaiminato,JP,2020-12-22 17:13:10,35.55,133.23,39.2,93,75,6.93
105,Puerto Ayora,EC,2020-12-22 17:13:10,-0.74,-90.35,78.8,65,75,13.87
106,Ostrovnoy,RU,2020-12-22 17:13:11,68.05,39.51,32.02,97,100,4.72
107,Krasnoselkup,RU,2020-12-22 17:13:11,65.7,82.47,-44.36,79,67,4.07
108,Ambon,ID,2020-12-22 17:13:11,-3.7,128.18,82.65,76,100,10.83
109,Butaritari,KI,2020-12-22 17:13:12,3.07,172.79,80.29,81,13,14.76
110,Richards Bay,ZA,2020-12-22 17:13:12,-28.78,32.04,75.81,94,99,10.4
111,Biloela,AU,2020-12-22 17:13:12,-24.42,150.5,71.24,77,97,12.46
112,Hanko,FI,2020-12-22 17:13:12,59.83,22.95,39.0,88,100,3.0
113,Morondava,MG,2020-12-22 17:13:12,-20.28,44.28,83.68,75,1,12.59
114,Healdsburg,US,2020-12-22 17:11:50,38.61,-122.87,48.99,87,20,4.7
115,Mocuba,MZ,2020-12-22 17:13:13,-16.84,36.99,80.15,77,35,3.15
116,The Valley,AI,2020-12-22 17:13:12,18.22,-63.06,86.0,69,40,16.11
117,Hermanus,ZA,2020-12-22 17:13:13,-34.42,19.23,73.0,78,82,7.0
118,Xam Nua,LA,2020-12-22 17:13:13,20.42,104.04,47.21,93,42,1.61
119,Chokurdakh,RU,2020-12-22 17:13:14,70.63,147.92,-16.24,89,100,6.69
120,Turtas,RU,2020-12-22 17:13:14,58.94,69.13,10.38,96,100,4.65
121,Vangaindrano,MG,2020-12-22 17:13:14,-23.35,47.6,75.04,86,16,5.66
122,Ahome,MX,2020-12-22 17:13:14,25.92,-109.18,57.2,93,90,2.33
123,Praia Da Vitoria,PT,2020-12-22 17:13:15,38.73,-27.07,57.0,66,75,20.54
124,Cap Malheureux,MU,2020-12-22 17:13:15,-19.98,57.61,78.01,81,12,10.0
125,Saskylakh,RU,2020-12-22 17:13:15,71.92,114.08,-26.88,84,100,5.53
126,Nato,PH,2020-12-22 17:13:15,13.61,123.54,77.5,87,53,4.65
127,East London,ZA,2020-12-22 17:13:15,-33.02,27.91,69.8,94,20,5.82
128,Roma,US,2020-12-22 17:09:16,43.21,-75.46,37.0,80,90,11.41
129,Petropavlovsk-Kamchatskiy,RU,2020-12-22 17:13:16,53.05,158.65,15.8,66,75,4.47
130,Tuktoyaktuk,CA,2020-12-22 17:13:16,69.45,-133.04,-25.6,74,5,12.75
131,Balaipungut,ID,2020-12-22 17:13:16,1.05,101.28,78.8,83,40,2.62
132,Inuvik,CA,2020-12-22 17:13:17,68.35,-133.72,-18.4,75,73,6.93
133,Cayenne,GF,2020-12-22 17:13:17,4.93,-52.33,86.0,66,75,13.87
134,Houma,US,2020-12-22 17:09:36,29.6,-90.72,64.0,82,1,8.05
135,Venice,US,2020-12-22 17:11:34,27.1,-82.45,66.0,63,1,9.17
136,Thompson,CA,2020-12-22 17:13:17,55.74,-97.86,-11.2,76,40,6.93
137,Joshimath,IN,2020-12-22 17:13:18,30.57,79.57,40.6,41,0,6.98
138,Maningrida,AU,2020-12-22 17:13:18,-12.07,134.27,78.55,88,100,6.53
139,Kupang,ID,2020-12-22 17:13:18,-10.17,123.58,79.16,84,100,6.38
140,Esil,KZ,2020-12-22 17:13:18,51.96,66.4,-0.47,91,83,9.8
141,Sungaipenuh,ID,2020-12-22 17:13:19,-2.08,101.38,66.07,95,98,1.79
142,Fereydun Kenar,IR,2020-12-22 17:13:19,36.69,52.52,42.8,100,6,4.7
143,College,US,2020-12-22 17:13:19,64.86,-147.8,24.8,73,90,8.05
144,Port-Gentil,GA,2020-12-22 17:13:19,-0.72,8.78,84.2,70,20,5.82
145,Husavik,IS,2020-12-22 17:13:20,66.04,-17.34,23.0,85,75,6.93
146,Coron,PH,2020-12-22 17:13:20,12.0,120.2,78.98,79,100,4.61
147,Jamestown,US,2020-12-22 17:13:20,42.1,-79.24,34.0,86,90,14.09
148,Olinda,BR,2020-12-22 17:11:53,-8.01,-34.86,82.4,58,40,10.29
149,Grootfontein,NA,2020-12-22 17:13:20,-19.57,18.12,81.79,40,97,3.11
150,Moroni,KM,2020-12-22 17:13:21,-11.7,43.26,80.82,72,89,2.68
151,Sekoma,BW,2020-12-22 17:13:21,-24.4,23.88,81.75,53,100,8.41
152,Dali,CN,2020-12-22 17:13:21,25.7,100.18,43.27,83,12,4.63
153,La Ronge,CA,2020-12-22 17:13:21,55.1,-105.28,-4.0,83,75,9.17
154,Dingle,PH,2020-12-22 17:13:21,11.0,122.67,75.49,90,58,6.42
155,At-Bashi,KG,2020-12-22 17:13:22,41.17,75.81,10.26,64,98,1.45
156,Lahan,NP,2020-12-22 17:13:22,26.73,86.5,60.19,51,0,2.42
157,Xinqing,CN,2020-12-22 17:13:22,48.23,129.5,4.14,93,67,0.27
158,Bama,NG,2020-12-22 17:13:22,11.52,13.69,81.86,19,0,10.87
159,Pisco,PE,2020-12-22 17:13:23,-13.7,-76.22,71.6,78,20,10.29
160,Vila Franca Do Campo,PT,2020-12-22 17:13:23,37.72,-25.43,57.2,67,40,13.87
161,Kloulklubed,PW,2020-12-22 17:13:23,7.04,134.26,80.6,83,75,8.05
162,Stuttgart,DE,2020-12-22 17:11:04,48.78,9.18,55.99,93,75,9.17
163,Kavieng,PG,2020-12-22 17:13:23,-2.57,150.8,81.61,77,96,7.09
164,Micheweni,TZ,2020-12-22 17:13:24,-4.97,39.83,81.1,83,5,12.26
165,Aklavik,CA,2020-12-22 17:13:24,68.22,-135.01,-23.8,74,5,6.93
166,Sorland,NO,2020-12-22 17:13:24,67.67,12.69,42.8,70,0,10.29
167,Dhidhdhoo,MV,2020-12-22 17:13:01,6.88,73.1,81.16,82,100,20.15
168,Umm Kaddadah,SD,2020-12-22 17:13:24,13.6,26.69,78.6,17,40,10.45
169,Registro,BR,2020-12-22 17:13:25,-24.49,-47.84,71.29,92,100,4.43
170,Shepetivka,UA,2020-12-22 17:13:25,50.19,27.06,29.91,93,98,13.02
171,Kieta,PG,2020-12-22 17:13:25,-6.22,155.63,79.36,78,90,3.02
172,Brae,GB,2020-12-22 17:13:25,60.4,-1.35,44.6,70,40,20.8
173,Minab,IR,2020-12-22 17:13:26,27.15,57.08,62.6,39,0,4.7
174,Taoudenni,ML,2020-12-22 17:13:26,22.68,-3.98,71.37,26,0,15.28
175,Abu Samrah,SY,2020-12-22 17:13:26,35.3,37.18,53.26,76,36,2.24
176,Batagay,RU,2020-12-22 17:13:26,67.63,134.63,-47.15,75,56,1.1
177,Susuman,RU,2020-12-22 17:13:26,62.78,148.17,-26.5,83,99,2.57
178,Solnechnyy,RU,2020-12-22 17:13:27,50.72,136.63,1.67,82,2,2.55
179,Nyurba,RU,2020-12-22 17:13:27,63.28,118.33,-38.45,81,39,2.53
180,Inhambane,MZ,2020-12-22 17:13:27,-23.86,35.38,84.2,66,20,8.5
181,Santa Isabel Do Rio Negro,BR,2020-12-22 17:13:27,-0.41,-65.02,89.76,61,100,1.57
182,Wajid,SO,2020-12-22 17:13:28,3.81,43.25,86.67,30,85,8.88
183,Ponta Delgada,PT,2020-12-22 17:13:28,37.73,-25.67,57.2,67,40,13.87
184,Namibe,AO,2020-12-22 17:13:28,-15.2,12.15,71.64,80,20,11.61
185,San Patricio,US,2020-12-22 17:13:28,28.02,-97.52,73.0,68,75,9.17
186,Norman Wells,CA,2020-12-22 17:13:28,65.28,-126.83,-22.0,74,5,8.05
187,Ahuimanu,US,2020-12-22 17:13:29,21.44,-157.84,69.8,83,20,7.31
188,Ribeira Grande,PT,2020-12-22 17:13:29,38.52,-28.7,59.0,51,40,11.41
189,Korem,ET,2020-12-22 17:13:29,12.51,39.52,55.36,66,5,5.57
190,Chahuites,MX,2020-12-22 17:13:29,16.28,-94.18,87.35,45,7,5.93
191,Hovd,MN,2020-12-22 17:12:56,48.01,91.64,1.89,66,21,7.27
192,Pangnirtung,CA,2020-12-22 17:13:30,66.15,-65.71,8.6,84,90,17.22
193,Bondo,CD,2020-12-22 17:13:30,3.81,23.69,82.08,42,52,1.95
194,Middle Island,US,2020-12-22 17:13:30,40.88,-72.94,45.0,60,1,16.11
195,Vestmanna,FO,2020-12-22 17:13:30,62.16,-7.17,37.4,86,86,8.05
196,Vostok,RU,2020-12-22 17:13:31,46.49,135.88,4.93,96,100,3.8
197,Sirjan,IR,2020-12-22 17:13:31,29.45,55.68,44.64,57,0,3.62
198,Yurimaguas,PE,2020-12-22 17:13:22,-5.9,-76.08,80.6,83,75,6.93
199,Cidreira,BR,2020-12-22 17:12:49,-30.18,-50.21,72.68,57,0,10.96
200,Sitka,US,2020-12-22 17:13:31,57.05,-135.33,37.4,74,20,11.41
201,Changping,CN,2020-12-22 17:13:32,40.22,116.22,33.01,62,0,2.24
202,Hamilton,US,2020-12-22 17:12:19,39.18,-84.53,42.01,64,90,5.82
203,Fort Wellington,GY,2020-12-22 17:13:32,6.4,-57.6,83.21,77,69,9.6
204,Saint-Francois,FR,2020-12-22 17:13:32,46.42,3.91,59.0,72,75,6.93
205,Santa Cruz Verapaz,GT,2020-12-22 17:13:33,15.37,-90.43,62.6,93,90,3.04
206,Ilulissat,GL,2020-12-22 17:11:23,69.22,-51.1,33.8,55,75,12.75
207,Kijang,KR,2020-12-22 17:13:33,35.24,129.21,28.4,74,0,1.12
208,Lorengau,PG,2020-12-22 17:13:33,-2.02,147.27,79.52,84,100,10.42
209,Bereda,ES,2020-12-22 17:13:34,43.27,-7.54,57.99,74,100,7.0
210,Talcahuano,CL,2020-12-22 17:08:35,-36.72,-73.12,69.8,60,0,14.99
211,Faanui,PF,2020-12-22 17:13:34,-16.48,-151.75,79.57,69,98,2.95
212,Takaungu,KE,2020-12-22 17:13:34,-3.68,39.86,82.4,78,20,9.17
213,Nelson Bay,AU,2020-12-22 17:13:35,-32.72,152.15,62.01,67,80,10.29
214,Topolobampo,MX,2020-12-22 17:13:35,25.6,-109.05,57.2,93,90,2.8
215,Nicoya,CR,2020-12-22 17:13:35,10.15,-85.45,86.0,55,20,23.04
216,Lagoa,PT,2020-12-22 17:13:35,39.05,-27.98,55.96,70,7,22.73
217,Ishigaki,JP,2020-12-22 17:13:36,24.34,124.16,72.03,77,76,19.42
218,Shache,CN,2020-12-22 17:13:36,38.42,77.24,19.47,94,3,4.21
219,Ponta Do Sol,PT,2020-12-22 17:13:36,32.67,-17.1,66.2,59,40,9.17
220,Beringovskiy,RU,2020-12-22 17:13:36,63.05,179.32,-18.42,85,73,20.65
221,Vila,PT,2020-12-22 17:13:36,42.03,-8.16,54.0,86,92,8.01
222,Zhezkazgan,KZ,2020-12-22 17:13:37,47.8,67.71,-7.02,84,0,3.22
223,Bambous Virieux,MU,2020-12-22 17:13:37,-20.34,57.76,78.01,94,75,11.41
224,Codrington,AU,2020-12-22 17:13:37,-38.27,141.97,54.59,86,72,7.43
225,Alofi,NU,2020-12-22 17:13:37,-19.06,-169.92,71.6,100,88,3.85
226,Sisimiut,GL,2020-12-22 17:13:38,66.94,-53.67,22.64,94,100,22.48
227,Choszczno,PL,2020-12-22 17:13:38,53.17,15.42,54.0,87,97,11.99
228,Afsin,TR,2020-12-22 17:13:38,38.25,36.91,36.21,83,93,1.1
229,Shaoyang,CN,2020-12-22 17:13:38,27.23,111.45,48.06,56,73,0.36
230,Huancabamba,PE,2020-12-22 17:13:38,-5.24,-79.45,70.38,59,92,1.66
231,Kenai,US,2020-12-22 17:13:39,60.55,-151.26,35.6,93,90,17.22
232,Hasaki,JP,2020-12-22 17:12:36,35.73,140.83,28.4,92,20,1.12
233,Charters Towers,AU,2020-12-22 17:13:39,-20.1,146.27,77.63,80,84,5.99
234,Uarini,BR,2020-12-22 17:13:39,-2.99,-65.11,82.4,88,40,3.36
235,Galesong,ID,2020-12-22 17:13:39,-5.32,119.37,75.2,100,40,5.82
236,Shimoda,JP,2020-12-22 17:13:40,34.67,138.95,39.0,72,0,1.01
237,Port Blair,IN,2020-12-22 17:13:40,11.67,92.75,77.95,77,21,9.91
238,Mezhdurechensk,RU,2020-12-22 17:13:40,53.69,88.06,3.2,92,100,7.0
239,Constitucion,CL,2020-12-22 17:13:40,-35.33,-72.42,69.76,45,2,16.11
240,Champerico,GT,2020-12-22 17:13:40,14.3,-91.92,84.2,66,40,4.7
241,Khatanga,RU,2020-12-22 17:13:41,71.97,102.5,-32.03,79,22,8.9
242,Nizhniy Odes,RU,2020-12-22 17:13:41,63.64,54.86,29.66,98,100,11.52
243,Souillac,MU,2020-12-22 17:13:41,-20.52,57.52,75.2,94,75,11.41
244,Saint-Augustin,CA,2020-12-22 17:13:41,51.23,-58.65,38.75,98,100,10.54
245,Jiayuguan,CN,2020-12-22 17:13:41,39.82,98.3,12.47,80,97,3.8
246,Zhangjiakou,CN,2020-12-22 17:13:42,40.81,114.88,19.53,86,87,3.31
247,Saint-Joseph,RE,2020-12-22 17:13:42,-21.37,55.62,78.8,69,0,20.8
248,Puerto Escondido,MX,2020-12-22 17:13:42,15.85,-97.07,82.4,78,5,3.18
249,Talara,PE,2020-12-22 17:13:42,-4.58,-81.27,82.4,54,20,21.92
250,Tiznit,MA,2020-12-22 17:13:43,29.58,-9.5,66.31,33,0,5.21
251,Palanga,LT,2020-12-22 17:13:43,55.92,21.07,35.6,93,90,16.11
252,Clyde River,CA,2020-12-22 17:13:43,70.47,-68.59,3.2,91,100,30.33
253,Kaitangata,NZ,2020-12-22 17:13:43,-46.28,169.85,57.0,99,100,2.04
254,Dodge City,US,2020-12-22 17:13:44,37.75,-100.02,50.0,65,1,14.99
255,Mountain Home,US,2020-12-22 17:13:44,43.13,-115.69,33.8,74,90,18.34
256,San Quintin,MX,2020-12-22 17:13:44,30.48,-115.95,64.29,43,34,1.92
257,Churapcha,RU,2020-12-22 17:13:44,62.0,132.43,-46.25,78,84,2.04
258,Portland,US,2020-12-22 17:11:08,45.52,-122.68,43.0,85,6,4.0
259,Lebu,CL,2020-12-22 17:10:17,-37.62,-73.65,60.44,69,0,22.91
260,Necochea,AR,2020-12-22 17:13:45,-38.55,-58.74,85.28,25,0,8.12
261,Tecoman,MX,2020-12-22 17:13:45,18.92,-103.88,75.2,57,20,2.01
262,Viedma,AR,2020-12-22 17:10:39,-40.81,-63.0,98.37,15,8,17.74
263,Khelyulya,RU,2020-12-22 17:13:46,61.73,30.68,36.23,94,93,7.65
264,Melfi,IT,2020-12-22 17:13:46,41.0,15.65,45.0,82,77,2.42
265,Saint George,US,2020-12-22 17:13:46,37.1,-113.58,39.2,51,1,1.25
266,Miskolc,HU,2020-12-22 17:10:07,48.1,20.78,37.0,87,100,7.02
267,Ballina,AU,2020-12-22 17:13:46,-28.87,153.57,77.0,65,93,10.29
268,Videira,BR,2020-12-22 17:13:47,-27.01,-51.15,85.8,28,0,4.68
269,Magadan,RU,2020-12-22 17:13:47,59.57,150.8,-5.03,85,98,15.14
270,Mindelo,CV,2020-12-22 17:13:47,16.89,-24.98,77.0,57,20,20.8
271,Paamiut,GL,2020-12-22 17:13:22,61.99,-49.67,32.47,97,100,26.51
272,Zhanaozen,KZ,2020-12-22 17:13:48,43.3,52.8,24.19,91,0,14.29
273,Tasiilaq,GL,2020-12-22 17:13:48,65.61,-37.64,17.6,57,40,5.82
274,Ca Mau,VN,2020-12-22 17:13:48,9.18,105.15,71.02,82,100,5.82
275,Hithadhoo,MV,2020-12-22 17:13:48,-0.6,73.08,82.51,76,92,13.4
276,Kampot,KH,2020-12-22 17:13:48,10.62,104.18,78.8,61,20,2.24
277,Marovoay,MG,2020-12-22 17:13:49,-16.1,46.63,82.4,69,20,10.29
278,Tahoua,NE,2020-12-22 17:13:49,14.89,5.27,89.6,18,0,4.7
279,Broome,US,2020-12-22 17:13:49,42.25,-75.83,37.0,80,90,13.87
280,Mount Isa,AU,2020-12-22 17:13:50,-20.73,139.5,73.4,78,90,5.82
281,Kaeo,NZ,2020-12-22 17:13:50,-35.1,173.78,62.01,93,99,1.01
282,Vila Velha,BR,2020-12-22 17:11:50,-20.33,-40.29,91.4,59,20,12.75
283,Marsh Harbour,BS,2020-12-22 17:12:39,26.54,-77.06,72.28,57,37,13.53
284,Strelka,RU,2020-12-22 17:13:50,58.07,93.03,1.09,92,100,7.29
285,Gornopravdinsk,RU,2020-12-22 17:13:51,60.05,69.9,1.49,93,100,6.58
286,Thornbury,GB,2020-12-22 17:13:51,52.23,-2.55,44.01,94,100,6.69
287,Saint-Philippe,RE,2020-12-22 17:13:51,-21.36,55.77,78.8,69,0,20.8
288,Hambantota,LK,2020-12-22 17:13:51,6.12,81.12,75.52,89,100,9.44
289,San Cristobal,VE,2020-12-22 17:13:51,7.77,-72.22,86.0,55,40,5.82
290,Sakakah,SA,2020-12-22 17:13:52,29.97,40.21,62.6,51,0,4.7
291,Quatre Cocos,MU,2020-12-22 17:13:52,-20.21,57.76,78.01,94,75,11.41
292,Matara,LK,2020-12-22 17:11:09,5.95,80.54,74.86,89,100,2.95
293,Bakchar,RU,2020-12-22 17:13:52,57.02,82.07,-8.0,91,100,4.68
294,Anito,PH,2020-12-22 17:13:52,12.45,125.29,80.04,87,1,9.04
295,Cocorit,MX,2020-12-22 17:13:53,27.58,-109.97,60.8,59,5,2.28
296,Superior,US,2020-12-22 17:13:53,46.72,-92.1,27.0,85,90,4.14
297,Akhmim,EG,2020-12-22 17:13:53,26.56,31.75,68.0,40,0,9.17
298,Moose Factory,CA,2020-12-22 17:13:53,51.26,-80.61,3.2,77,90,10.29
299,Aswan,EG,2020-12-22 17:13:53,24.09,32.91,71.1,24,5,9.57
300,Benghazi,LY,2020-12-22 17:13:54,32.12,20.07,63.23,72,90,12.55
301,Klaksvik,FO,2020-12-22 17:13:54,62.23,-6.59,37.4,86,97,8.05
302,Sapa,PH,2020-12-22 17:13:54,5.15,120.32,81.66,81,46,6.98
303,Kemijarvi,FI,2020-12-22 17:13:54,66.71,27.43,33.62,93,98,6.08
304,Isla Mujeres,MX,2020-12-22 17:12:18,21.23,-86.73,80.6,69,40,9.17
305,Ishim,RU,2020-12-22 17:13:55,56.11,69.49,7.86,95,100,10.65
306,Arlit,NE,2020-12-22 17:13:55,18.74,7.39,77.16,17,0,8.37
307,Roald,NO,2020-12-22 17:13:55,62.58,6.13,41.0,86,75,5.82
308,Catamarca,AR,2020-12-22 17:13:55,-28.47,-65.79,91.99,33,0,11.01
309,Westport,US,2020-12-22 17:10:41,41.14,-73.36,44.6,56,1,8.05
310,Augusto Correa,BR,2020-12-22 17:13:56,-1.02,-46.63,88.97,53,99,7.31
311,Okha,RU,2020-12-22 17:13:56,53.57,142.95,-8.79,88,4,13.2
312,Aviles,ES,2020-12-22 17:13:56,43.55,-5.92,62.6,72,20,1.12
313,Derzhavinsk,KZ,2020-12-22 17:13:57,51.1,66.32,-2.63,88,0,14.63
314,Itoman,JP,2020-12-22 17:13:57,26.12,127.67,68.0,72,20,8.05
315,Parrita,CR,2020-12-22 17:13:57,9.52,-84.32,78.8,57,0,19.46
316,Henties Bay,NA,2020-12-22 17:13:57,-22.12,14.28,69.01,83,10,1.99
317,Eyl,SO,2020-12-22 17:13:58,7.98,49.82,77.0,61,66,24.02
318,Celestun,MX,2020-12-22 17:13:58,20.87,-90.4,77.79,65,1,7.63
319,Naze,JP,2020-12-22 17:13:58,28.37,129.48,59.0,77,70,5.82
320,Casablanca,MA,2020-12-22 17:09:16,33.59,-7.62,68.0,64,0,9.17
321,Asosa,ET,2020-12-22 17:13:59,10.07,34.53,72.72,35,42,4.72
322,Angoche,MZ,2020-12-22 17:13:59,-16.23,39.91,83.25,74,5,9.37
323,Maumere,ID,2020-12-22 17:13:21,-8.62,122.21,81.07,77,100,5.03
324,Chippewa Falls,US,2020-12-22 17:13:59,44.94,-91.39,28.99,74,90,8.05
325,Caraballeda,VE,2020-12-22 17:14:00,10.61,-66.85,84.2,74,75,10.0
326,Samana,DO,2020-12-22 17:14:00,19.21,-69.34,80.6,83,40,4.7
327,Lancaster,US,2020-12-22 17:14:00,40.25,-76.25,42.01,65,90,12.75
328,Rapid Valley,US,2020-12-22 17:14:01,44.06,-103.15,53.6,40,1,8.05
329,Mamallapuram,IN,2020-12-22 17:14:01,12.63,80.17,73.4,88,40,9.46
330,Sao Felix Do Xingu,BR,2020-12-22 17:14:01,-6.64,-51.99,90.66,49,92,3.71
331,Innisfail,AU,2020-12-22 17:14:01,-17.53,146.03,76.6,89,50,2.48
332,Chegdomyn,RU,2020-12-22 17:14:02,51.12,133.02,-13.97,87,12,0.85
333,Demyansk,RU,2020-12-22 17:14:02,57.64,32.47,29.64,96,100,7.02
334,Umea,SE,2020-12-22 17:14:02,63.83,20.26,39.0,93,90,6.93
335,Towada,JP,2020-12-22 17:14:02,40.61,141.21,32.0,96,20,10.29
336,Dunedin,NZ,2020-12-22 17:14:02,-45.87,170.5,57.0,87,100,3.27
337,Santa Maria,BR,2020-12-22 17:14:03,-29.68,-53.81,80.6,39,20,11.41
338,Ust-Kuyga,RU,2020-12-22 17:14:03,70.02,135.6,-41.33,79,100,4.18
339,Riyadh,SA,2020-12-22 17:12:54,24.69,46.72,64.4,45,0,3.36
340,Sampit,ID,2020-12-22 17:14:03,-2.53,112.95,74.98,94,60,2.37
341,Sarandi,BR,2020-12-22 17:14:03,-23.44,-51.87,86.0,66,75,11.41
342,Asheville,US,2020-12-22 17:13:01,35.6,-82.55,48.99,39,1,19.46
343,Eltham,NZ,2020-12-22 17:14:04,-39.43,174.3,62.01,95,100,4.0
344,Muros,ES,2020-12-22 17:14:04,42.78,-9.06,57.99,90,100,14.0
345,Aykhal,RU,2020-12-22 17:14:04,66.0,111.5,-40.0,58,0,4.47
346,Chiang Mai,TH,2020-12-22 17:13:57,18.75,99.0,66.0,82,0,1.12
347,Ushtobe,KZ,2020-12-22 17:14:05,45.25,77.98,6.98,88,0,3.91
348,Seuzach,CH,2020-12-22 17:14:05,47.53,8.73,53.6,87,75,12.75
349,Progreso,MX,2020-12-22 17:11:58,21.28,-89.67,80.01,65,20,9.17
350,Balakhta,RU,2020-12-22 17:14:05,55.38,91.6,-0.83,87,100,10.31
351,Curvelo,BR,2020-12-22 17:14:06,-18.76,-44.43,79.79,76,99,5.77
352,Vanderhoof,CA,2020-12-22 17:14:06,54.02,-124.02,12.25,95,29,3.56
353,Fortuna,US,2020-12-22 17:14:06,40.6,-124.16,39.2,100,1,7.4
354,Nadvoitsy,RU,2020-12-22 17:14:06,63.87,34.32,35.91,95,100,7.72
355,Road Town,VG,2020-12-22 17:13:09,18.42,-64.62,86.0,62,40,11.41
356,Ciudad Bolivar,VE,2020-12-22 17:14:07,8.12,-63.55,89.71,51,87,9.64
357,Kendari,ID,2020-12-22 17:14:07,-3.94,122.5,77.43,89,84,1.45
358,Ruidoso,US,2020-12-22 17:13:06,33.33,-105.67,48.0,30,1,4.7
359,Pochutla,MX,2020-12-22 17:14:07,15.74,-96.47,88.0,51,20,5.03
360,Nuuk,GL,2020-12-22 17:11:57,64.18,-51.72,28.4,92,90,6.93
361,Qaqortoq,GL,2020-12-22 17:14:08,60.72,-46.03,28.4,79,75,3.36
362,Bethel,US,2020-12-22 17:14:08,41.37,-73.41,43.0,65,1,5.82
363,Beboto,TD,2020-12-22 17:14:08,8.27,16.94,81.95,20,11,1.43
364,San Rafael Del Sur,NI,2020-12-22 17:14:09,11.85,-86.44,86.0,62,20,18.34
365,Tateyama,JP,2020-12-22 17:14:09,34.98,139.87,42.8,70,20,8.05
366,Ketchikan,US,2020-12-22 17:11:06,55.34,-131.65,30.2,100,75,2.24
367,Amapa,BR,2020-12-22 17:14:09,1.0,-52.0,95.54,31,100,3.85
368,Provideniya,RU,2020-12-22 17:14:09,64.38,-173.3,7.81,93,100,22.75
369,Prince Rupert,CA,2020-12-22 17:14:10,54.32,-130.32,37.4,89,1,3.36
370,Devonport,AU,2020-12-22 17:14:10,-41.17,146.35,55.99,96,83,6.89
371,Oriximina,BR,2020-12-22 17:14:10,-1.77,-55.87,93.88,42,60,3.58
372,Kaka,TM,2020-12-22 17:14:10,37.35,59.61,38.5,72,80,6.2
373,Barcelos,PT,2020-12-22 17:14:11,41.54,-8.62,59.0,87,0,10.29
374,Kitob,UZ,2020-12-22 17:14:11,39.08,66.83,35.62,81,1,1.25
375,Asau,RO,2020-12-22 17:14:11,46.43,26.4,32.0,94,90,14.99
376,Bandar-E Lengeh,IR,2020-12-22 17:14:11,26.56,54.88,68.0,52,0,4.7
377,Palmer,US,2020-12-22 17:14:11,42.16,-72.33,42.01,78,44,1.99
378,Mingguang,CN,2020-12-22 17:14:12,32.78,117.96,39.99,70,100,4.16
379,Baykit,RU,2020-12-22 17:14:12,61.67,96.37,-9.42,86,100,1.36
380,Saldanha,ZA,2020-12-22 17:14:12,-33.01,17.94,73.4,69,44,17.22
381,Indian Head,US,2020-12-22 17:14:12,38.6,-77.16,48.2,52,90,21.92
382,Port Elizabeth,ZA,2020-12-22 17:12:34,-33.92,25.57,73.4,88,40,16.11
383,Manokwari,ID,2020-12-22 17:14:13,-0.87,134.08,80.35,76,99,8.43
384,Maceio,BR,2020-12-22 17:13:17,-9.67,-35.74,86.0,58,40,14.99
385,Nara,JP,2020-12-22 17:11:15,34.69,135.8,42.01,71,38,3.33
386,Oktyabrskiy,RU,2020-12-22 17:14:13,54.48,53.47,16.29,96,100,9.53
387,New Milford,US,2020-12-22 17:12:13,40.93,-74.02,44.6,88,1,5.82
388,Punta Gorda,US,2020-12-22 17:14:14,26.93,-82.05,64.0,63,1,13.87
389,Poum,NC,2020-12-22 17:14:14,-20.23,164.02,78.6,77,13,6.06
390,Nizhnyaya Tavda,RU,2020-12-22 17:14:14,57.67,66.17,17.1,97,100,8.75
391,Caravelas,BR,2020-12-22 17:14:14,-17.71,-39.25,85.75,60,2,11.83
392,Desaguadero,PE,2020-12-22 17:14:15,-16.57,-69.04,55.94,53,82,11.63
393,Sept-Iles,CA,2020-12-22 17:14:15,50.2,-66.38,33.01,92,100,10.29
394,Sao Filipe,CV,2020-12-22 17:14:15,14.9,-24.5,75.85,69,0,13.47
395,Bintulu,MY,2020-12-22 17:14:15,3.17,113.03,77.0,94,40,7.56
396,Sabha,LY,2020-12-22 17:14:15,27.04,14.43,63.66,41,91,24.11
397,Vestmannaeyjar,IS,2020-12-22 17:14:16,63.44,-20.27,26.6,63,20,19.46
398,Havelock,US,2020-12-22 17:14:16,34.88,-76.9,57.0,47,1,16.11
399,Margate,GB,2020-12-22 17:10:07,51.38,1.39,51.01,88,100,3.83
400,Komsomolskiy,UZ,2020-12-22 17:14:16,40.43,71.72,30.2,86,100,4.7
401,Vanimo,PG,2020-12-22 17:14:16,-2.67,141.3,78.22,84,99,5.17
402,Marabba,SD,2020-12-22 17:14:17,12.35,32.18,85.66,21,2,10.33
403,Encrucijada,CU,2020-12-22 17:14:17,22.62,-79.87,75.2,83,75,12.75
404,Imbituba,BR,2020-12-22 17:14:17,-28.24,-48.67,77.0,57,75,9.17
405,Lavrentiya,RU,2020-12-22 17:14:17,65.58,-171.0,11.61,94,100,17.9
406,Labuhan,ID,2020-12-22 17:14:17,-6.88,112.21,78.46,83,61,12.75
407,Newark,US,2020-12-22 17:12:22,40.74,-74.17,44.6,70,75,10.29
408,Farmington,US,2020-12-22 17:14:18,36.73,-108.22,30.2,63,1,6.93
409,Pleasant Grove,US,2020-12-22 17:14:18,40.36,-111.74,44.01,74,75,5.3
410,Taltal,CL,2020-12-22 17:14:18,-25.4,-70.48,68.18,60,25,6.73
411,Raudeberg,NO,2020-12-22 17:14:19,61.99,5.14,41.0,94,100,23.98
412,Marawi,PH,2020-12-22 17:14:19,8.0,124.29,75.99,88,20,8.01
413,Nioro,GM,2020-12-22 17:14:19,13.35,-15.75,96.03,11,35,6.22
414,Kitimat,CA,2020-12-22 17:14:19,54.05,-128.65,30.0,96,98,2.98
415,Batemans Bay,AU,2020-12-22 17:14:19,-35.72,150.18,63.0,91,23,4.54
416,Tokur,RU,2020-12-22 17:14:20,53.13,132.9,-16.26,89,99,2.35
417,Talnakh,RU,2020-12-22 17:14:20,69.49,88.4,-43.6,64,0,6.71
418,Astana,KZ,2020-12-22 17:14:20,51.18,71.45,1.4,70,75,13.42
419,Palana,RU,2020-12-22 17:14:20,59.12,159.97,1.99,90,100,5.66
420,Tambura,SS,2020-12-22 17:14:20,5.6,27.47,82.22,33,30,7.92
421,Barcelona,ES,2020-12-22 17:09:36,41.39,2.16,60.01,87,20,12.75
422,Mozarlandia,BR,2020-12-22 17:11:34,-14.74,-50.57,85.98,62,100,4.9
423,Coahuayana,MX,2020-12-22 17:14:21,18.73,-103.68,75.2,57,20,2.98
424,Nyanguge,TZ,2020-12-22 17:14:21,-2.55,33.2,73.4,73,20,8.34
425,Plettenberg Bay,ZA,2020-12-22 17:14:21,-34.05,23.37,70.36,91,50,6.62
426,Kysyl-Syr,RU,2020-12-22 17:14:22,63.9,122.76,-45.62,76,86,0.89
427,Njombe,TZ,2020-12-22 17:14:22,-9.33,34.77,59.97,92,59,3.89
428,Kununurra,AU,2020-12-22 17:14:22,-15.77,128.73,75.2,100,82,4.7
429,Kautokeino,NO,2020-12-22 17:14:22,69.01,23.04,21.36,97,97,11.68
430,Cherskiy,RU,2020-12-22 17:14:23,68.75,161.3,-34.42,82,90,3.22
431,Victoria,HK,2020-12-22 17:14:23,22.29,114.16,66.0,81,100,1.01
432,Boralday,KZ,2020-12-22 17:14:23,43.36,76.86,3.2,84,20,4.47
433,Raul Soares,BR,2020-12-22 17:14:23,-20.1,-42.45,85.37,66,89,5.01
434,Touros,BR,2020-12-22 17:14:23,-5.2,-35.46,86.0,58,40,17.22
435,Baruun-Urt,MN,2020-12-22 17:14:24,46.68,113.28,6.67,95,100,6.69
436,Camacha,PT,2020-12-22 17:14:24,33.08,-16.33,64.4,72,40,5.82
437,Pangody,RU,2020-12-22 17:14:24,65.85,74.49,-35.52,83,0,2.57
438,Sur,OM,2020-12-22 17:14:24,22.57,59.53,72.52,63,0,12.26
439,Merauke,ID,2020-12-22 17:14:24,-8.47,140.33,78.8,82,24,3.47
440,Taksimo,RU,2020-12-22 17:14:25,56.34,114.88,-7.87,86,100,0.27
441,Wilmington,US,2020-12-22 17:09:25,34.23,-77.94,60.01,47,1,12.75
442,Chau Doc,VN,2020-12-22 17:10:18,10.7,105.12,72.18,67,100,10.47
443,Palu,ID,2020-12-22 17:14:25,-0.89,119.87,77.22,77,100,1.52
444,Sumkino,RU,2020-12-22 17:14:25,58.11,68.32,13.23,96,100,6.78
445,Mehamn,NO,2020-12-22 17:14:26,71.04,27.85,30.2,86,0,11.41
446,Kirkwall,GB,2020-12-22 17:14:26,58.98,-2.96,41.0,86,75,9.17
447,Dongsheng,CN,2020-12-22 17:14:26,39.82,109.98,12.6,80,39,19.82
448,Luganville,VU,2020-12-22 17:14:26,-15.53,167.17,78.46,82,1,5.35
449,Bharwari,IN,2020-12-22 17:14:26,25.55,81.5,57.9,41,7,3.53
450,Coihaique,CL,2020-12-22 17:14:27,-45.58,-72.07,57.2,54,75,11.41
451,Uvat,RU,2020-12-22 17:14:27,59.14,68.9,10.63,96,100,5.19
452,Thoen,TH,2020-12-22 17:12:32,17.61,99.22,60.33,72,19,1.7
453,Ornskoldsvik,SE,2020-12-22 17:14:27,63.29,18.72,35.6,100,100,4.7
454,Dalby,AU,2020-12-22 17:14:27,-27.18,151.27,68.0,90,95,6.42
455,Emborion,GR,2020-12-22 17:14:28,40.48,21.55,48.99,87,74,2.24
456,Caldwell,US,2020-12-22 17:10:07,43.66,-116.69,37.99,64,1,18.34
457,Praya,CV,2020-12-22 17:10:45,14.92,-23.51,80.6,54,20,17.22
458,Ginir,ET,2020-12-22 17:14:29,7.13,40.7,62.08,51,99,1.23
459,Jumla,NP,2020-12-22 17:14:29,29.27,82.18,40.86,48,43,4.74
460,Andenes,NO,2020-12-22 17:14:29,69.31,16.12,39.0,65,0,10.29
461,Chifeng,CN,2020-12-22 17:14:29,42.27,118.96,16.97,88,100,5.7
462,Rong Kwang,TH,2020-12-22 17:14:30,18.34,100.32,64.0,59,10,1.99
463,Camopi,GF,2020-12-22 17:14:30,3.17,-52.32,87.87,55,89,4.65
464,Serrana,BR,2020-12-22 17:14:30,-21.21,-47.6,89.6,46,75,6.93
465,Svobodnyy,RU,2020-12-22 17:14:31,51.4,128.13,-8.68,90,29,3.31
466,Belyy Yar,RU,2020-12-22 17:14:31,53.6,91.39,14.0,47,0,15.66
467,Leshukonskoye,RU,2020-12-22 17:14:31,64.9,45.76,35.29,96,100,9.44
468,Vyazma,RU,2020-12-22 17:12:46,55.21,34.3,17.46,98,96,6.58
469,Escanaba,US,2020-12-22 17:14:31,45.75,-87.06,30.99,86,90,5.82
470,Arkhangelsk,RU,2020-12-22 17:14:32,64.54,40.54,33.8,100,90,2.24
471,Chapais,CA,2020-12-22 17:14:32,49.78,-74.85,17.6,85,90,9.17
472,Kahului,US,2020-12-22 17:11:33,20.89,-156.47,71.01,77,1,5.82
473,Cesis,LV,2020-12-22 17:14:32,57.31,25.27,33.01,97,99,4.0
474,Brigantine,US,2020-12-22 17:14:33,39.41,-74.36,44.6,75,75,14.99
475,Altay,CN,2020-12-22 17:14:33,47.87,88.12,-1.26,74,58,3.13
476,Antalaha,MG,2020-12-22 17:14:33,-14.9,50.28,77.92,81,21,10.29
477,Amarante Do Maranhao,BR,2020-12-22 17:14:33,-5.57,-46.74,88.52,60,92,1.95
478,Koshurnikovo,RU,2020-12-22 17:14:33,54.17,93.3,-3.48,93,100,2.93
479,Rawson,AR,2020-12-22 17:10:47,-43.3,-65.1,79.95,18,5,6.62
480,Pemangkat,ID,2020-12-22 17:14:28,1.17,108.97,78.33,86,100,9.22
481,Pimentel,PE,2020-12-22 17:14:34,-6.84,-79.93,78.8,57,0,6.93
482,Khasan,RU,2020-12-22 17:14:34,42.43,130.64,28.72,80,0,4.14
483,Sinegorskiy,RU,2020-12-22 17:14:34,48.01,40.84,18.39,94,91,11.83
484,Laguna,US,2020-12-22 17:14:35,38.42,-121.42,43.0,87,90,11.41
485,Umm Lajj,SA,2020-12-22 17:14:35,25.02,37.27,76.6,64,0,6.44
486,Urusha,RU,2020-12-22 17:14:35,54.05,122.9,-10.64,85,39,2.42
487,Agadir,MA,2020-12-22 17:14:35,30.42,-9.6,73.4,28,0,13.87
488,Yokote,JP,2020-12-22 17:14:35,39.3,140.57,35.51,93,98,3.06
489,Goure,NE,2020-12-22 17:14:36,13.98,10.27,82.0,12,43,1.99
490,Pacific Grove,US,2020-12-22 17:13:35,36.62,-121.92,50.0,87,90,9.28
491,Tromso,NO,2020-12-22 17:14:36,69.65,18.96,37.4,69,0,23.04
492,Bandarbeyla,SO,2020-12-22 17:14:36,9.49,50.81,75.56,70,6,22.86
493,Borovskoy,KZ,2020-12-22 17:14:36,53.8,64.15,9.64,94,7,8.41
494,Te Anau,NZ,2020-12-22 17:14:37,-45.42,167.72,53.44,91,100,1.43
495,Anda,CN,2020-12-22 17:14:37,46.4,125.32,9.79,94,75,5.66
496,Yeppoon,AU,2020-12-22 17:14:37,-23.13,150.73,80.6,69,90,10.29
497,Neiafu,TO,2020-12-22 17:14:37,-18.65,-173.98,77.0,94,75,3.18
498,Nouakchott,MR,2020-12-22 17:14:38,18.09,-15.98,82.4,15,0,10.29
499,Yinchuan,CN,2020-12-22 17:14:38,38.47,106.27,21.65,78,1,2.93
500,Bambanglipuro,ID,2020-12-22 17:14:38,-7.95,110.28,77.99,79,58,3.51
501,Kulhudhuffushi,MV,2020-12-22 17:14:38,6.62,73.07,81.43,82,100,21.12
502,Aktau,KZ,2020-12-22 17:14:39,43.65,51.2,28.4,74,90,20.13
503,Brekstad,NO,2020-12-22 17:14:39,63.69,9.67,42.01,85,40,6.93
504,Ortona,IT,2020-12-22 17:14:39,42.35,14.4,54.0,76,5,2.24
505,Tabou,CI,2020-12-22 17:14:39,4.42,-7.35,81.07,81,28,7.99
506,Buchanan,LR,2020-12-22 17:14:39,5.88,-10.05,82.27,76,40,8.25
507,Marzuq,YE,2020-12-22 17:14:40,14.4,46.47,63.7,37,0,3.02
508,Bayan,CN,2020-12-22 17:14:40,46.08,127.4,4.68,95,26,3.74
509,Ban Pong,TH,2020-12-22 17:14:40,13.82,99.88,72.0,76,0,4.99
510,Bernay,FR,2020-12-22 17:14:40,49.17,0.67,55.99,91,100,5.01
511,Christchurch,NZ,2020-12-22 17:14:41,-43.53,172.63,61.0,93,100,4.7
512,Laguna De Perlas,NI,2020-12-22 17:14:41,12.34,-83.67,80.6,88,75,4.7
513,Victor Harbor,AU,2020-12-22 17:14:41,-35.57,138.62,61.0,75,77,1.01
514,Joensuu,FI,2020-12-22 17:14:41,62.6,29.76,37.0,100,90,8.05
515,Poplar Bluff,US,2020-12-22 17:14:42,36.76,-90.39,50.0,45,1,3.36
516,Abomsa,ET,2020-12-22 17:14:42,9.98,39.98,71.73,40,5,3.71
517,Los Llanos De Aridane,ES,2020-12-22 17:14:42,28.66,-17.92,69.8,68,20,3.36
518,Haaksbergen,NL,2020-12-22 17:14:42,52.16,6.74,48.99,98,100,3.65
519,Aginskoye,RU,2020-12-22 17:14:42,51.1,114.53,5.27,89,67,8.66
520,Ritchie,ZA,2020-12-22 17:14:43,-29.04,24.6,66.2,93,75,6.93
521,Mokhsogollokh,RU,2020-12-22 17:14:43,61.47,128.92,-34.64,82,100,2.59
522,Saquarema,BR,2020-12-22 17:14:43,-22.92,-42.51,84.2,78,75,11.41
523,Pitimbu,BR,2020-12-22 17:14:43,-7.47,-34.81,87.8,52,40,11.41
524,Amga,RU,2020-12-22 17:14:43,60.9,131.96,-40.32,79,96,1.52
525,Canarana,BR,2020-12-22 17:14:44,-11.68,-41.77,95.07,25,6,2.39
526,Denpasar,ID,2020-12-22 17:11:50,-8.65,115.22,82.4,78,20,10.29
527,Katsuura,JP,2020-12-22 17:14:44,35.13,140.3,42.8,70,20,8.05
528,Mayo,US,2020-12-22 17:14:44,38.89,-76.51,48.0,65,20,10.29
529,Sinjar,IQ,2020-12-22 17:14:45,36.32,41.88,49.87,71,89,12.53
530,Southbridge,US,2020-12-22 17:12:45,42.08,-72.03,42.01,61,44,4.0
531,Urumqi,CN,2020-12-22 17:14:45,43.8,87.6,1.4,84,3,2.24
532,Malinovskiy,RU,2020-12-22 17:14:45,61.2,62.84,24.51,99,100,3.96
533,Verkhnyaya Khava,RU,2020-12-22 17:14:45,51.84,39.94,17.6,92,90,11.18
534,Santa Cruz Del Sur,CU,2020-12-22 17:14:46,20.71,-78.0,81.3,71,24,8.79
535,Hays,US,2020-12-22 17:14:46,30.05,-98.03,64.99,55,9,4.0
536,Mount Gambier,AU,2020-12-22 17:14:46,-37.83,140.77,51.8,93,90,5.82
537,Bembibre,ES,2020-12-22 17:14:46,42.62,-6.42,57.99,99,97,3.6
538,Doctor Juan Leon Mallorquin,PY,2020-12-22 17:14:46,-25.4,-55.27,86.0,33,0,4.7
539,Yanam,IN,2020-12-22 17:14:47,16.73,82.22,68.31,71,0,3.02
540,Hofn,IS,2020-12-22 17:14:47,64.25,-15.21,25.14,87,36,15.59
541,Faya,SA,2020-12-22 17:14:47,18.39,42.45,62.6,82,40,5.82
542,Jardim,BR,2020-12-22 17:14:47,-21.48,-56.14,95.34,42,15,3.71
543,Ocos,GT,2020-12-22 17:14:48,14.51,-92.19,86.0,70,20,5.82
544,Bilma,NE,2020-12-22 17:14:48,18.69,12.92,71.69,20,77,4.68
545,Varkaus,FI,2020-12-22 17:14:48,62.32,27.87,36.0,100,90,10.29
546,Thinadhoo,MV,2020-12-22 17:14:48,0.53,72.93,82.22,79,100,12.21
547,Klyuchevskiy,RU,2020-12-22 17:14:49,53.53,119.45,-4.95,92,95,2.86
548,Sola,VU,2020-12-22 17:14:49,-13.88,167.55,81.0,83,0,13.76
549,Nambucca Heads,AU,2020-12-22 17:14:49,-30.65,153.0,73.4,56,100,6.93
550,Lusambo,CD,2020-12-22 17:14:49,-4.97,23.45,76.71,77,87,1.36
551,Bozdar,PK,2020-12-22 17:14:49,27.18,68.64,59.0,72,0,6.85
552,Atar,MR,2020-12-22 17:14:50,20.52,-13.05,77.45,18,0,15.79
553,Lata,PT,2020-12-22 17:14:50,40.16,-8.33,62.6,72,0,6.93
554,Lompoc,US,2020-12-22 17:14:50,34.64,-120.46,39.2,100,40,5.82
555,Nemuro,JP,2020-12-22 17:14:50,43.32,145.57,32.88,89,9,13.42
556,Russell,US,2020-12-22 17:14:50,32.35,-85.2,62.01,58,1,5.26
557,Noumea,NC,2020-12-22 17:14:51,-22.28,166.46,69.8,94,0,3.36
558,Alim,PH,2020-12-22 17:14:51,9.56,122.49,79.66,78,41,8.57
559,La Ligua,CL,2020-12-22 17:14:51,-32.45,-71.23,60.8,82,75,13.87
560,Catemaco,MX,2020-12-22 17:14:52,18.42,-95.12,70.92,90,91,3.2
561,Saint-Paul,RE,2020-12-22 17:10:06,-21.01,55.27,77.0,69,0,16.11
562,Yenagoa,NG,2020-12-22 17:14:52,4.92,6.26,82.24,78,29,5.21
563,Tual,ID,2020-12-22 17:14:52,-5.67,132.75,84.29,76,100,17.38
564,Lasa,IT,2020-12-22 17:14:53,46.62,10.7,42.01,93,75,8.05
565,Orlik,RU,2020-12-22 17:14:53,52.52,99.83,-8.82,79,63,7.47
566,Avera,US,2020-12-22 17:14:53,33.19,-82.53,59.0,38,1,13.87
567,Yar-Sale,RU,2020-12-22 17:14:53,66.83,70.83,-32.48,83,0,4.25
568,Tafo,GH,2020-12-22 17:14:54,6.73,-1.61,88.41,46,27,4.88
569,Whitley Bay,GB,2020-12-22 17:14:54,55.04,-1.45,39.99,86,20,6.82
570,Aberdeen,GB,2020-12-22 17:14:13,57.14,-2.1,39.2,80,0,5.82
571,Barroquinha,BR,2020-12-22 17:14:54,-3.02,-41.14,89.6,55,20,17.22
572,Xixiang,CN,2020-12-22 17:14:54,35.16,112.86,44.01,99,100,5.21
573,Pavlovsk,RU,2020-12-22 17:14:55,50.46,40.11,7.7,94,1,5.21
574,Sinnamary,GF,2020-12-22 17:14:55,5.38,-52.95,80.83,85,100,13.2
575,Karpogory,RU,2020-12-22 17:14:55,64.0,44.45,35.24,97,100,8.75
576,Conde,BR,2020-12-22 17:11:13,-7.26,-34.91,87.8,52,40,11.41
577,Otukpo,NG,2020-12-22 17:14:55,7.19,8.13,91.38,26,4,3.38
578,Tumbagaan,PH,2020-12-22 17:14:56,5.37,120.31,80.98,82,47,7.34
579,Gravdal,NO,2020-12-22 17:14:56,68.12,13.5,42.8,70,40,9.17
580,Tymoshivka,UA,2020-12-22 17:14:56,47.18,35.11,24.04,98,63,6.96
581,Svetlyy,RU,2020-12-22 17:14:56,54.67,20.13,33.8,93,90,13.42
582,Shawinigan,CA,2020-12-22 17:14:57,46.57,-72.75,34.0,86,100,3.36
583,Hernani,ES,2020-12-22 17:14:57,43.27,-1.98,68.0,52,0,3.36
584,Zatoka,UA,2020-12-22 17:14:57,46.07,30.47,30.2,86,82,4.47
585,Tarakan,ID,2020-12-22 17:14:57,3.3,117.63,81.21,82,39,8.68
586,Surt,LY,2020-12-22 17:14:57,31.21,16.59,63.25,71,83,10.85
587,Grojec,PL,2020-12-22 17:14:58,51.86,20.87,42.01,10,100,16.75
588,Mugla,TR,2020-12-22 17:14:58,37.23,28.36,55.4,54,0,10.29
